Time(s),Lat(deg),Lon(deg),Alt(m),Vmag(m/s),Vhead(m/s),Vgam(m/s),Yaw(deg),Pitch(deg),Roll(deg),Yaw(deg/s),Pitch(deg/s),Roll(deg/s),Xecef(m),Yecef(m),Zecef(m)
0.805,19.2736,166.6506,18,11.177,164.35,86.99,164.37,87,0,0,-0.005,0.001,-5860139.164,1390614.194,2091967.54
0.81,19.2736,166.6506,18,11.2502,164.34,86.98,164.37,87,0,0.003,-0.008,0.001,-5860139.164,1390614.194,2091967.54
0.85,19.2736,166.6506,19,11.8262,164.22,86.88,164.39,87,0.02,0.031,-0.035,0.001,-5860140.082,1390614.412,2091967.87
0.9,19.2736,166.6506,19,12.5517,164.1,86.78,164.44,87,0.07,0.065,-0.07,0.001,-5860140.082,1390614.412,2091967.87
0.95,19.2736,166.6506,20,13.2771,164.01,86.69,164.52,86.99,0.15,0.099,-0.104,0.001,-5860141,1390614.63,2091968.2
1,19.2736,166.6506,21,14.0025,163.94,86.61,164.63,86.99,0.26,0.134,-0.138,0.001,-5860141.919,1390614.848,2091968.53
1.05,19.2736,166.6506,21,14.734,163.89,86.53,164.78,86.98,0.41,0.168,-0.172,0.001,-5860141.919,1390614.848,2091968.53
1.1,19.2736,166.6506,22,15.4686,163.87,86.47,164.95,86.97,0.58,0.198,-0.203,0.001,-5860142.837,1390615.066,2091968.86
1.15,19.2736,166.6506,23,16.2093,163.86,86.4,165.16,86.96,0.78,0.227,-0.232,0.001,-5860143.756,1390615.283,2091969.19
1.2,19.2736,166.6506,24,16.953,163.88,86.34,165.38,86.95,1.01,0.255,-0.259,0.002,-5860144.674,1390615.501,2091969.52
1.25,19.2736,166.6506,25,17.6997,163.91,86.29,165.63,86.93,1.26,0.28,-0.284,0.002,-5860145.593,1390615.719,2091969.85
1.3,19.2736,166.6506,25,18.4495,163.96,86.24,165.9,86.92,1.53,0.304,-0.308,0.002,-5860145.593,1390615.719,2091969.85
1.35,19.2736,166.6506,26,19.2054,164.02,86.19,166.19,86.9,1.82,0.326,-0.33,0.002,-5860146.511,1390615.937,2091970.18
1.4,19.2736,166.6506,27,19.9644,164.1,86.14,166.49,86.88,2.12,0.347,-0.35,0.002,-5860147.43,1390616.155,2091970.51
1.45,19.2736,166.6506,28,20.7294,164.19,86.1,166.81,86.86,2.44,0.365,-0.368,0.003,-5860148.348,1390616.373,2091970.84
1.5,19.2736,166.6506,29,21.4975,164.29,86.06,167.14,86.84,2.76,0.382,-0.385,0.003,-5860149.266,1390616.591,2091971.171
1.55,19.2736,166.6506,31,22.2687,164.4,86.02,167.47,86.82,3.1,0.397,-0.399,0.003,-5860151.103,1390617.027,2091971.831
1.6,19.2736,166.6506,32,23.0459,164.52,85.98,167.82,86.8,3.44,0.41,-0.412,0.004,-5860152.022,1390617.245,2091972.161
1.65,19.2736,166.6506,33,23.7622,164.65,85.94,168.17,86.78,3.79,0.421,-0.423,0.004,-5860152.94,1390617.463,2091972.491
1.7,19.2736,166.6506,34,24.3901,164.77,85.9,168.52,86.76,4.15,0.43,-0.433,0.005,-5860153.859,1390617.681,2091972.821
1.75,19.2736,166.6506,35,24.9296,164.89,85.86,168.88,86.73,4.5,0.437,-0.44,0.005,-5860154.777,1390617.899,2091973.151
1.8,19.2736,166.6506,36,25.3807,165,85.81,169.23,86.71,4.86,0.442,-0.446,0.006,-5860155.696,1390618.117,2091973.481
1.85,19.2736,166.6506,38,25.7434,165.12,85.76,169.59,86.69,5.21,0.445,-0.45,0.006,-5860157.533,1390618.553,2091974.141
1.9,19.2736,166.6506,39,26.0177,165.22,85.71,169.94,86.66,5.56,0.447,-0.452,0.007,-5860158.451,1390618.771,2091974.471
1.95,19.2736,166.6506,40,26.2158,165.32,85.66,170.28,86.64,5.91,0.448,-0.452,0.008,-5860159.369,1390618.989,2091974.801
2,19.2736,166.6506,42,26.3987,165.43,85.6,170.62,86.61,6.25,0.446,-0.451,0.009,-5860161.206,1390619.424,2091975.462
2.05,19.2736,166.6506,43,26.5725,165.54,85.55,170.96,86.59,6.58,0.442,-0.448,0.009,-5860162.125,1390619.642,2091975.792
2.1,19.2736,166.6506,44,26.734,165.67,85.49,171.28,86.56,6.9,0.42,-0.428,0.01,-5860163.043,1390619.86,2091976.122
2.15,19.2736,166.6506,46,26.8864,165.81,85.43,171.57,86.54,7.19,0.395,-0.406,0.011,-5860164.88,1390620.296,2091976.782
2.2,19.2736,166.6506,47,27.0266,165.95,85.38,171.85,86.52,7.47,0.369,-0.381,0.012,-5860165.799,1390620.514,2091977.112
2.25,19.2736,166.6506,48,27.1577,166.09,85.32,172.1,86.5,7.72,0.341,-0.356,0.013,-5860166.717,1390620.732,2091977.442
2.3,19.2736,166.6506,50,27.2857,166.23,85.26,172.33,86.48,7.95,0.312,-0.33,0.014,-5860168.554,1390621.168,2091978.102
2.35,19.2736,166.6506,51,27.4076,166.36,85.2,172.53,86.46,8.16,0.283,-0.304,0.014,-5860169.472,1390621.386,2091978.432
2.4,19.2736,166.6506,52,27.5234,166.5,85.14,172.72,86.44,8.34,0.254,-0.279,0.015,-5860170.391,1390621.604,2091978.762
2.45,19.2736,166.6506,54,27.6393,166.64,85.09,172.88,86.43,8.5,0.225,-0.253,0.016,-5860172.228,1390622.04,2091979.423
2.5,19.2736,166.6506,55,27.749,166.77,85.03,173.02,86.42,8.65,0.195,-0.228,0.017,-5860173.146,1390622.258,2091979.753
2.55,19.2736,166.6506,57,27.8557,166.9,84.97,173.14,86.4,8.77,0.166,-0.203,0.018,-5860174.983,1390622.694,2091980.413
2.6,19.2736,166.6506,58,27.9624,167.03,84.91,173.24,86.39,8.87,0.138,-0.179,0.019,-5860175.901,1390622.912,2091980.743
2.65,19.2736,166.6506,59,28.066,167.15,84.85,173.32,86.38,8.95,0.11,-0.155,0.02,-5860176.82,1390623.13,2091981.073
2.7,19.2736,166.6506,61,28.1696,167.27,84.8,173.38,86.38,9.01,0.084,-0.132,0.021,-5860178.657,1390623.566,2091981.733
2.75,19.2736,166.6506,62,28.2732,167.39,84.74,173.43,86.37,9.05,0.058,-0.11,0.022,-5860179.575,1390623.783,2091982.063
2.8,19.2736,166.6506,64,28.3738,167.5,84.68,173.45,86.36,9.08,0.032,-0.089,0.023,-5860181.412,1390624.219,2091982.723
2.85,19.2736,166.6506,65,28.4744,167.61,84.62,173.46,86.36,9.09,0.008,-0.069,0.024,-5860182.331,1390624.437,2091983.053
2.9,19.2736,166.6506,66,28.578,167.72,84.57,173.45,86.36,9.08,-0.015,-0.051,0.025,-5860183.249,1390624.655,2091983.383
2.95,19.2736,166.6506,68,28.6786,167.82,84.51,173.43,86.36,9.06,-0.037,-0.034,0.025,-5860185.086,1390625.091,2091984.044
3,19.2736,166.6506,69,28.7823,167.92,84.46,173.39,86.36,9.03,-0.058,-0.018,0.026,-5860186.004,1390625.309,2091984.374
3.05,19.2736,166.6506,71,28.8859,168.01,84.4,173.34,86.36,8.98,-0.077,-0.003,0.027,-5860187.841,1390625.745,2091985.034
3.1,19.2736,166.6506,72,28.9926,168.11,84.35,173.28,86.36,8.91,-0.1,0.015,0.028,-5860188.76,1390625.963,2091985.364
3.15,19.2736,166.6506,74,29.0962,168.2,84.3,173.2,86.36,8.84,-0.122,0.031,0.028,-5860190.597,1390626.399,2091986.024
3.2,19.2736,166.6506,75,29.2029,168.28,84.25,173.1,86.36,8.74,-0.143,0.046,0.029,-5860191.515,1390626.617,2091986.354
3.25,19.2736,166.6506,76,29.3096,168.36,84.19,172.99,86.37,8.63,-0.162,0.059,0.029,-5860192.434,1390626.835,2091986.684
3.3,19.2736,166.6506,78,29.4162,168.44,84.14,172.87,86.37,8.51,-0.179,0.072,0.03,-5860194.27,1390627.271,2091987.344
3.35,19.2736,166.6506,79,29.526,168.51,84.09,172.74,86.37,8.38,-0.194,0.082,0.031,-5860195.189,1390627.489,2091987.675
3.4,19.2736,166.6506,81,29.6388,168.57,84.04,172.59,86.38,8.24,-0.207,0.091,0.031,-5860197.026,1390627.924,2091988.335
3.45,19.2736,166.6506,82,29.7485,168.63,83.99,172.44,86.39,8.09,-0.218,0.098,0.032,-5860197.944,1390628.142,2091988.665
3.5,19.2736,166.6506,84,29.8613,168.68,83.94,172.28,86.39,7.93,-0.228,0.104,0.032,-5860199.781,1390628.578,2091989.325
3.55,19.2736,166.6506,85,29.9771,168.73,83.9,172.11,86.4,7.76,-0.235,0.109,0.033,-5860200.7,1390628.796,2091989.655
3.6,19.2736,166.6506,87,30.0929,168.78,83.85,171.94,86.41,7.59,-0.241,0.112,0.033,-5860202.536,1390629.232,2091990.315
3.65,19.2736,166.6506,88,30.2118,168.82,83.8,171.76,86.41,7.42,-0.245,0.114,0.034,-5860203.455,1390629.45,2091990.645
3.7,19.2736,166.6506,90,30.3306,168.86,83.76,171.58,86.42,7.24,-0.247,0.114,0.034,-5860205.292,1390629.886,2091991.305
3.75,19.2736,166.6506,91,30.4526,168.89,83.72,171.4,86.43,7.06,-0.248,0.113,0.034,-5860206.21,1390630.104,2091991.635
3.8,19.2736,166.6506,93,30.5745,168.92,83.67,171.21,86.44,6.87,-0.248,0.111,0.035,-5860208.047,1390630.54,2091992.296
3.85,19.2736,166.6506,94,30.6964,168.95,83.63,171.03,86.44,6.69,-0.247,0.107,0.035,-5860208.966,1390630.758,2091992.626
3.9,19.2736,166.6506,96,30.8244,168.97,83.59,170.85,86.45,6.51,-0.244,0.103,0.035,-5860210.802,1390631.194,2091993.286
3.95,19.2736,166.6506,97,30.9494,168.99,83.55,170.66,86.46,6.33,-0.24,0.098,0.035,-5860211.721,1390631.412,2091993.616
4,19.2736,166.6506,99,31.0774,169,83.51,170.48,86.46,6.15,-0.235,0.091,0.036,-5860213.558,1390631.848,2091994.276
4.05,19.2736,166.6506,101,31.2085,169.01,83.47,170.31,86.47,5.98,-0.229,0.084,0.036,-5860215.395,1390632.283,2091994.936
4.1,19.2736,166.6506,102,31.3395,169.02,83.43,170.13,86.47,5.81,-0.222,0.076,0.036,-5860216.313,1390632.501,2091995.266
4.15,19.2735,166.6507,104,31.4737,169.03,83.39,169.97,86.48,5.64,-0.215,0.067,0.036,-5860224.132,1390623.553,2091985.477
4.2,19.2735,166.6507,105,31.6078,169.04,83.35,169.8,86.48,5.48,-0.208,0.059,0.036,-5860225.051,1390623.771,2091985.807
4.25,19.2735,166.6507,107,31.7449,169.04,83.31,169.65,86.49,5.33,-0.2,0.05,0.037,-5860226.888,1390624.207,2091986.467
4.3,19.2735,166.6507,108,31.8821,169.04,83.28,169.49,86.49,5.18,-0.192,0.041,0.037,-5860227.806,1390624.425,2091986.798
4.35,19.2735,166.6507,110,32.0223,169.04,83.24,169.35,86.49,5.03,-0.183,0.032,0.037,-5860229.643,1390624.861,2091987.458
4.4,19.2735,166.6507,112,32.1625,169.04,83.21,169.21,86.49,4.89,-0.175,0.023,0.038,-5860231.48,1390625.296,2091988.118
4.45,19.2735,166.6507,113,32.3058,169.04,83.17,169.07,86.5,4.76,-0.167,0.013,0.038,-5860232.398,1390625.514,2091988.448
4.5,19.2735,166.6507,115,32.449,169.03,83.14,168.94,86.5,4.63,-0.158,0.003,0.038,-5860234.235,1390625.95,2091989.108
4.55,19.2735,166.6507,116,32.5953,169.03,83.11,168.82,86.5,4.51,-0.15,-0.007,0.038,-5860235.154,1390626.168,2091989.438
4.6,19.2735,166.6507,118,32.7416,169.02,83.07,168.7,86.5,4.4,-0.141,-0.016,0.038,-5860236.991,1390626.604,2091990.098
4.65,19.2735,166.6507,120,32.891,169.01,83.04,168.59,86.5,4.29,-0.132,-0.025,0.039,-5860238.827,1390627.04,2091990.758
4.7,19.2735,166.6507,121,33.0403,169,83.01,168.49,86.5,4.19,-0.124,-0.033,0.039,-5860239.746,1390627.258,2091991.089
4.75,19.2735,166.6507,123,33.1927,168.99,82.98,168.4,86.49,4.1,-0.115,-0.041,0.039,-5860241.583,1390627.694,2091991.749
4.8,19.2735,166.6507,125,33.3482,168.98,82.94,168.31,86.49,4.01,-0.107,-0.049,0.039,-5860243.42,1390628.13,2091992.409
4.85,19.2735,166.6507,126,33.5067,168.97,82.91,168.22,86.49,3.93,-0.099,-0.056,0.04,-5860244.338,1390628.348,2091992.739
4.9,19.2735,166.6507,128,33.6652,168.96,82.88,168.14,86.49,3.85,-0.091,-0.063,0.04,-5860246.175,1390628.784,2091993.399
4.95,19.2735,166.6507,130,33.8267,168.95,82.85,168.07,86.48,3.78,-0.084,-0.07,0.04,-5860248.012,1390629.22,2091994.059
5,19.2735,166.6507,131,33.9883,168.94,82.83,168.01,86.48,3.72,-0.078,-0.076,0.04,-5860248.93,1390629.437,2091994.389
5.05,19.2735,166.6507,133,34.1528,168.92,82.8,167.94,86.48,3.66,-0.071,-0.082,0.04,-5860250.767,1390629.873,2091995.049
5.1,19.2735,166.6507,135,34.3174,168.91,82.77,167.89,86.47,3.6,-0.066,-0.088,0.04,-5860252.604,1390630.309,2091995.71
5.15,19.2735,166.6507,136,34.482,168.9,82.74,167.84,86.47,3.55,-0.06,-0.094,0.04,-5860253.523,1390630.527,2091996.04
5.2,19.2735,166.6507,138,34.6466,168.89,82.71,167.79,86.46,3.51,-0.056,-0.1,0.041,-5860255.36,1390630.963,2091996.7
5.25,19.2735,166.6507,140,34.8112,168.88,82.68,167.74,86.46,3.46,-0.052,-0.106,0.041,-5860257.196,1390631.399,2091997.36
5.3,19.2735,166.6507,141,34.9728,168.86,82.66,167.7,86.45,3.42,-0.047,-0.111,0.041,-5860258.115,1390631.617,2091997.69
5.35,19.2735,166.6507,143,35.1373,168.85,82.63,167.66,86.45,3.39,-0.043,-0.116,0.041,-5860259.952,1390632.053,2091998.35
5.4,19.2735,166.6507,145,35.3019,168.84,82.6,167.63,86.44,3.35,-0.039,-0.12,0.041,-5860261.789,1390632.489,2091999.01
5.45,19.2735,166.6507,147,35.4665,168.83,82.57,167.59,86.44,3.32,-0.035,-0.123,0.041,-5860263.626,1390632.925,2091999.671
5.5,19.2735,166.6507,148,35.6311,168.81,82.55,167.56,86.43,3.3,-0.031,-0.125,0.041,-5860264.544,1390633.143,2092000.001
5.55,19.2735,166.6507,150,35.7957,168.8,82.52,167.54,86.43,3.27,-0.027,-0.128,0.042,-5860266.381,1390633.578,2092000.661
5.6,19.2735,166.6507,152,35.9603,168.79,82.49,167.52,86.42,3.25,-0.023,-0.13,0.042,-5860268.218,1390634.014,2092001.321
5.65,19.2735,166.6507,154,36.1279,168.78,82.47,167.5,86.41,3.23,-0.02,-0.132,0.042,-5860270.055,1390634.45,2092001.981
5.7,19.2735,166.6507,156,36.2925,168.76,82.44,167.48,86.41,3.22,-0.017,-0.133,0.042,-5860271.892,1390634.886,2092002.641
5.75,19.2735,166.6507,157,36.4602,168.75,82.42,167.46,86.4,3.2,-0.015,-0.135,0.042,-5860272.81,1390635.104,2092002.971
5.8,19.2735,166.6507,159,36.6309,168.74,82.39,167.45,86.39,3.19,-0.012,-0.135,0.043,-5860274.647,1390635.54,2092003.631
5.85,19.2735,166.6507,161,36.7985,168.73,82.36,167.44,86.39,3.18,-0.01,-0.136,0.043,-5860276.484,1390635.976,2092004.292
5.9,19.2735,166.6507,163,36.9692,168.72,82.34,167.43,86.38,3.18,-0.008,-0.136,0.043,-5860278.321,1390636.412,2092004.952
5.95,19.2735,166.6507,165,37.1399,168.71,82.31,167.42,86.37,3.17,-0.007,-0.135,0.043,-5860280.158,1390636.848,2092005.612
6,19.2735,166.6507,167,37.3106,168.69,82.29,167.41,86.37,3.16,-0.005,-0.134,0.043,-5860281.995,1390637.284,2092006.272
6.05,19.2735,166.6507,168,37.4843,168.68,82.27,167.4,86.36,3.16,-0.004,-0.133,0.043,-5860282.913,1390637.501,2092006.602
6.1,19.2735,166.6507,170,37.658,168.67,82.24,167.4,86.35,3.16,-0.005,-0.13,0.044,-5860284.75,1390637.937,2092007.262
6.15,19.2735,166.6507,172,37.8318,168.66,82.22,167.39,86.35,3.15,-0.006,-0.127,0.044,-5860286.587,1390638.373,2092007.922
6.2,19.2735,166.6507,174,38.0055,168.65,82.19,167.38,86.34,3.15,-0.008,-0.124,0.044,-5860288.424,1390638.809,2092008.583
6.25,19.2735,166.6507,176,38.1823,168.65,82.17,167.37,86.33,3.14,-0.01,-0.121,0.044,-5860290.261,1390639.245,2092009.243
6.3,19.2735,166.6507,178,38.3591,168.64,82.15,167.36,86.33,3.13,-0.013,-0.118,0.044,-5860292.098,1390639.681,2092009.903
6.35,19.2735,166.6507,180,38.5359,168.63,82.12,167.35,86.32,3.12,-0.016,-0.116,0.044,-5860293.934,1390640.117,2092010.563
6.4,19.2735,166.6507,182,38.7127,168.62,82.1,167.33,86.32,3.1,-0.019,-0.114,0.044,-5860295.771,1390640.553,2092011.223
6.45,19.2735,166.6507,184,38.8925,168.61,82.08,167.32,86.31,3.09,-0.022,-0.111,0.045,-5860297.608,1390640.989,2092011.883
6.5,19.2735,166.6507,185,39.0723,168.6,82.06,167.3,86.31,3.07,-0.025,-0.109,0.045,-5860298.527,1390641.207,2092012.214
6.55,19.2735,166.6507,187,39.2521,168.59,82.03,167.28,86.3,3.05,-0.028,-0.107,0.045,-5860300.364,1390641.642,2092012.874
6.6,19.2735,166.6507,189,39.432,168.59,82.01,167.25,86.3,3.03,-0.03,-0.105,0.045,-5860302.2,1390642.078,2092013.534
6.65,19.2734,166.6507,191,39.6149,168.58,81.99,167.23,86.29,3.01,-0.032,-0.103,0.045,-5860307.593,1390643.358,2092003.745
6.7,19.2734,166.6507,193,39.7977,168.57,81.97,167.2,86.29,2.98,-0.033,-0.101,0.045,-5860309.429,1390643.794,2092004.405
6.75,19.2734,166.6507,195,39.9806,168.56,81.95,167.17,86.28,2.96,-0.034,-0.099,0.046,-5860311.266,1390644.23,2092005.065
6.8,19.2734,166.6507,197,40.1635,168.55,81.93,167.15,86.28,2.93,-0.035,-0.097,0.046,-5860313.103,1390644.666,2092005.725
6.85,19.2734,166.6507,199,40.3494,168.54,81.91,167.12,86.27,2.91,-0.036,-0.095,0.046,-5860314.94,1390645.101,2092006.385
6.9,19.2734,166.6507,201,40.5354,168.53,81.89,167.09,86.27,2.88,-0.037,-0.094,0.047,-5860316.777,1390645.537,2092007.045
6.95,19.2734,166.6507,203,40.7213,168.52,81.87,167.06,86.26,2.85,-0.038,-0.093,0.047,-5860318.614,1390645.973,2092007.705
7,19.2734,166.6507,205,40.9103,168.51,81.85,167.03,86.26,2.83,-0.039,-0.092,0.046,-5860320.451,1390646.409,2092008.366
7.05,19.2734,166.6507,207,41.0962,168.49,81.83,167,86.25,2.8,-0.039,-0.092,0.046,-5860322.288,1390646.845,2092009.026
7.1,19.2734,166.6507,209,41.2852,168.48,81.81,166.97,86.25,2.77,-0.039,-0.092,0.046,-5860324.125,1390647.281,2092009.686
7.15,19.2734,166.6507,211,41.4772,168.47,81.79,166.94,86.24,2.74,-0.039,-0.092,0.046,-5860325.962,1390647.717,2092010.346
7.2,19.2734,166.6507,213,41.6692,168.46,81.77,166.91,86.24,2.71,-0.04,-0.092,0.046,-5860327.798,1390648.153,2092011.006
7.25,19.2734,166.6507,216,41.8612,168.45,81.75,166.88,86.24,2.69,-0.04,-0.092,0.046,-5860330.554,1390648.807,2092011.996
7.3,19.2734,166.6507,218,42.0533,168.44,81.73,166.85,86.23,2.66,-0.04,-0.093,0.046,-5860332.391,1390649.242,2092012.657
7.35,19.2734,166.6507,220,42.2483,168.43,81.72,166.81,86.23,2.63,-0.041,-0.094,0.046,-5860334.228,1390649.678,2092013.317
7.4,19.2734,166.6507,222,42.4434,168.42,81.7,166.78,86.22,2.6,-0.041,-0.095,0.046,-5860336.064,1390650.114,2092013.977
7.45,19.2734,166.6507,224,42.6385,168.4,81.68,166.75,86.22,2.57,-0.042,-0.096,0.046,-5860337.901,1390650.55,2092014.637
7.5,19.2734,166.6507,226,42.8335,168.39,81.67,166.72,86.21,2.54,-0.042,-0.097,0.047,-5860339.738,1390650.986,2092015.297
7.55,19.2734,166.6507,228,43.0317,168.38,81.65,166.69,86.21,2.51,-0.042,-0.099,0.047,-5860341.575,1390651.422,2092015.957
7.6,19.2734,166.6507,230,43.2328,168.37,81.63,166.66,86.2,2.48,-0.042,-0.1,0.047,-5860343.412,1390651.858,2092016.617
7.65,19.2734,166.6507,232,43.431,168.36,81.62,166.62,86.2,2.45,-0.042,-0.102,0.047,-5860345.249,1390652.294,2092017.278
7.7,19.2734,166.6507,235,43.6321,168.34,81.6,166.59,86.19,2.42,-0.042,-0.104,0.046,-5860348.004,1390652.948,2092018.268
7.75,19.2734,166.6507,237,43.8333,168.33,81.58,166.56,86.19,2.39,-0.041,-0.105,0.047,-5860349.841,1390653.383,2092018.928
7.8,19.2734,166.6507,239,44.0375,168.32,81.57,166.53,86.18,2.36,-0.041,-0.105,0.047,-5860351.678,1390653.819,2092019.588
7.85,19.2734,166.6507,241,44.2417,168.31,81.55,166.5,86.18,2.34,-0.04,-0.105,0.047,-5860353.515,1390654.255,2092020.248
7.9,19.2734,166.6507,243,44.4459,168.29,81.54,166.47,86.17,2.31,-0.039,-0.105,0.047,-5860355.352,1390654.691,2092020.908
7.95,19.2734,166.6507,245,44.6532,168.28,81.52,166.44,86.17,2.28,-0.038,-0.105,0.047,-5860357.189,1390655.127,2092021.569
8,19.2734,166.6507,248,44.8605,168.27,81.51,166.41,86.16,2.26,-0.036,-0.106,0.047,-5860359.944,1390655.781,2092022.559
8.05,19.2734,166.6507,250,45.0677,168.25,81.49,166.39,86.16,2.23,-0.035,-0.105,0.047,-5860361.781,1390656.217,2092023.219
8.1,19.2734,166.6507,252,45.275,168.24,81.48,166.36,86.15,2.21,-0.034,-0.105,0.047,-5860363.618,1390656.653,2092023.879
8.15,19.2734,166.6507,254,45.4853,168.23,81.47,166.33,86.15,2.19,-0.034,-0.104,0.047,-5860365.455,1390657.089,2092024.539
8.2,19.2734,166.6507,257,45.6987,168.21,81.45,166.31,86.14,2.16,-0.033,-0.103,0.047,-5860368.21,1390657.742,2092025.53
8.25,19.2734,166.6507,259,45.909,168.2,81.44,166.28,86.14,2.14,-0.033,-0.103,0.047,-5860370.047,1390658.178,2092026.19
8.3,19.2734,166.6507,261,46.1223,168.19,81.43,166.26,86.13,2.12,-0.033,-0.103,0.047,-5860371.884,1390658.614,2092026.85
8.35,19.2734,166.6507,263,46.3357,168.17,81.41,166.24,86.13,2.1,-0.032,-0.102,0.048,-5860373.721,1390659.05,2092027.51
8.4,19.2734,166.6507,266,46.5521,168.16,81.4,166.21,86.12,2.08,-0.031,-0.102,0.047,-5860376.476,1390659.704,2092028.5
8.45,19.2733,166.6507,268,46.7685,168.15,81.39,166.19,86.12,2.06,-0.03,-0.102,0.047,-5860381.868,1390660.983,2092018.711
8.5,19.2733,166.6507,270,46.9849,168.13,81.37,166.17,86.11,2.04,-0.03,-0.102,0.047,-5860383.705,1390661.419,2092019.371
8.55,19.2733,166.6507,273,47.2013,168.12,81.36,166.15,86.11,2.02,-0.03,-0.103,0.047,-5860386.461,1390662.073,2092020.361
8.6,19.2733,166.6507,275,47.4208,168.11,81.35,166.12,86.1,2,-0.03,-0.104,0.048,-5860388.297,1390662.509,2092021.021
8.65,19.2733,166.6507,277,47.6433,168.09,81.34,166.1,86.1,1.98,-0.03,-0.105,0.048,-5860390.134,1390662.945,2092021.681
8.7,19.2733,166.6507,280,47.8627,168.08,81.33,166.08,86.09,1.96,-0.029,-0.105,0.048,-5860392.89,1390663.599,2092022.672
8.75,19.2733,166.6507,282,48.0852,168.07,81.31,166.06,86.09,1.94,-0.029,-0.106,0.048,-5860394.727,1390664.035,2092023.332
8.8,19.2733,166.6507,285,48.3108,168.05,81.3,166.04,86.08,1.92,-0.028,-0.106,0.048,-5860397.482,1390664.689,2092024.322
8.85,19.2733,166.6507,287,48.5333,168.04,81.29,166.02,86.08,1.9,-0.028,-0.106,0.048,-5860399.319,1390665.124,2092024.982
8.9,19.2733,166.6507,289,48.7589,168.03,81.28,166,86.07,1.89,-0.028,-0.106,0.048,-5860401.156,1390665.56,2092025.642
8.95,19.2733,166.6507,292,48.9875,168.01,81.27,165.98,86.07,1.87,-0.028,-0.107,0.048,-5860403.911,1390666.214,2092026.633
9,19.2733,166.6507,294,49.213,168,81.26,165.96,86.06,1.85,-0.028,-0.107,0.049,-5860405.748,1390666.65,2092027.293
9.05,19.2733,166.6507,297,49.4416,167.99,81.25,165.94,86.06,1.83,-0.027,-0.107,0.049,-5860408.503,1390667.304,2092028.283
9.1,19.2733,166.6507,299,49.6733,167.97,81.24,165.92,86.05,1.82,-0.027,-0.106,0.049,-5860410.34,1390667.74,2092028.943
9.15,19.2733,166.6507,301,49.9019,167.96,81.23,165.9,86.04,1.8,-0.026,-0.107,0.049,-5860412.177,1390668.176,2092029.603
9.2,19.2733,166.6507,304,50.1335,167.95,81.22,165.88,86.04,1.79,-0.025,-0.107,0.049,-5860414.933,1390668.83,2092030.593
9.25,19.2733,166.6507,306,50.3652,167.93,81.21,165.87,86.03,1.77,-0.024,-0.108,0.049,-5860416.769,1390669.265,2092031.254
9.3,19.2733,166.6507,309,50.5998,167.92,81.2,165.85,86.03,1.76,-0.024,-0.109,0.049,-5860419.525,1390669.919,2092032.244
9.35,19.2733,166.6507,311,50.8315,167.9,81.19,165.83,86.02,1.74,-0.023,-0.11,0.049,-5860421.362,1390670.355,2092032.904
9.4,19.2733,166.6507,314,51.0662,167.89,81.18,165.82,86.02,1.73,-0.022,-0.111,0.049,-5860424.117,1390671.009,2092033.894
9.45,19.2733,166.6507,316,51.3009,167.88,81.17,165.8,86.01,1.72,-0.021,-0.113,0.049,-5860425.954,1390671.445,2092034.554
9.5,19.2733,166.6507,319,51.5386,167.86,81.16,165.79,86.01,1.7,-0.02,-0.114,0.049,-5860428.709,1390672.099,2092035.545
9.55,19.2733,166.6507,322,51.7764,167.85,81.16,165.77,86,1.69,-0.02,-0.115,0.05,-5860431.465,1390672.753,2092036.535
9.6,19.2733,166.6507,324,52.0141,167.84,81.15,165.76,86,1.68,-0.021,-0.116,0.05,-5860433.302,1390673.188,2092037.195
9.65,19.2733,166.6507,327,52.2519,167.83,81.14,165.75,85.99,1.67,-0.021,-0.116,0.05,-5860436.057,1390673.842,2092038.185
9.7,19.2733,166.6507,329,52.4927,167.81,81.13,165.73,85.98,1.66,-0.021,-0.116,0.05,-5860437.894,1390674.278,2092038.845
9.75,19.2733,166.6507,332,52.7334,167.8,81.12,165.72,85.98,1.64,-0.021,-0.116,0.05,-5860440.649,1390674.932,2092039.836
9.8,19.2733,166.6507,335,52.9742,167.79,81.11,165.7,85.97,1.63,-0.02,-0.116,0.05,-5860443.404,1390675.586,2092040.826
9.85,19.2733,166.6507,337,53.2181,167.77,81.11,165.69,85.97,1.62,-0.019,-0.116,0.05,-5860445.241,1390676.022,2092041.486
9.9,19.2733,166.6507,340,53.4589,167.76,81.1,165.68,85.96,1.61,-0.019,-0.117,0.049,-5860447.997,1390676.676,2092042.476
9.95,19.2732,166.6507,342,53.7027,167.75,81.09,165.66,85.96,1.6,-0.018,-0.117,0.049,-5860453.389,1390677.955,2092032.687
10,19.2732,166.6507,345,53.9466,167.73,81.08,165.65,85.95,1.59,-0.019,-0.116,0.049,-5860456.144,1390678.609,2092033.677
10.05,19.2732,166.6507,348,54.1934,167.72,81.08,165.64,85.94,1.58,-0.019,-0.116,0.049,-5860458.9,1390679.263,2092034.667
10.1,19.2732,166.6507,350,54.4373,167.71,81.07,165.62,85.94,1.57,-0.02,-0.116,0.049,-5860460.736,1390679.699,2092035.327
10.15,19.2732,166.6507,353,54.6842,167.69,81.06,165.61,85.93,1.56,-0.02,-0.116,0.049,-5860463.492,1390680.353,2092036.317
10.2,19.2732,166.6507,356,54.9311,167.68,81.05,165.6,85.93,1.55,-0.02,-0.116,0.05,-5860466.247,1390681.006,2092037.308
10.25,19.2732,166.6507,359,55.181,167.67,81.05,165.58,85.92,1.54,-0.02,-0.117,0.05,-5860469.002,1390681.66,2092038.298
10.3,19.2732,166.6507,361,55.4279,167.66,81.04,165.57,85.92,1.52,-0.02,-0.116,0.049,-5860470.839,1390682.096,2092038.958
10.35,19.2732,166.6507,364,55.6778,167.64,81.03,165.56,85.91,1.51,-0.021,-0.116,0.049,-5860473.595,1390682.75,2092039.948
10.4,19.2732,166.6507,367,55.9278,167.63,81.03,165.54,85.9,1.5,-0.021,-0.115,0.049,-5860476.35,1390683.404,2092040.938
10.45,19.2732,166.6507,370,56.1807,167.62,81.02,165.53,85.9,1.49,-0.021,-0.115,0.05,-5860479.105,1390684.058,2092041.929
10.5,19.2732,166.6507,372,56.4307,167.61,81.01,165.51,85.89,1.48,-0.021,-0.114,0.05,-5860480.942,1390684.494,2092042.589
10.55,19.2732,166.6507,375,56.6837,167.59,81.01,165.5,85.89,1.47,-0.021,-0.113,0.049,-5860483.698,1390685.147,2092043.579
10.6,19.2732,166.6507,378,56.9366,167.58,81,165.49,85.88,1.46,-0.02,-0.113,0.049,-5860486.453,1390685.801,2092044.569
10.65,19.2732,166.6507,381,57.1927,167.57,81,165.47,85.88,1.44,-0.02,-0.113,0.048,-5860489.208,1390686.455,2092045.559
10.7,19.2732,166.6507,384,57.4457,167.56,80.99,165.46,85.87,1.43,-0.021,-0.113,0.048,-5860491.964,1390687.109,2092046.55
10.75,19.2732,166.6507,386,57.7017,167.54,80.98,165.45,85.86,1.42,-0.021,-0.114,0.047,-5860493.801,1390687.545,2092047.21
10.8,19.2732,166.6507,389,57.9577,167.53,80.98,165.43,85.86,1.41,-0.021,-0.115,0.047,-5860496.556,1390688.199,2092048.2
10.85,19.2732,166.6507,392,58.2138,167.52,80.97,165.42,85.85,1.4,-0.021,-0.116,0.047,-5860499.311,1390688.853,2092049.19
10.9,19.2732,166.6507,395,58.4728,167.51,80.97,165.4,85.85,1.39,-0.021,-0.117,0.047,-5860502.067,1390689.506,2092050.18
10.95,19.2732,166.6507,398,58.7319,167.49,80.96,165.39,85.84,1.38,-0.021,-0.117,0.047,-5860504.822,1390690.16,2092051.171
11,19.2732,166.6507,401,58.991,167.48,80.96,165.38,85.84,1.37,-0.019,-0.117,0.048,-5860507.577,1390690.814,2092052.161
11.05,19.2732,166.6507,404,59.2501,167.47,80.95,165.36,85.83,1.36,-0.018,-0.116,0.048,-5860510.333,1390691.468,2092053.151
11.1,19.2732,166.6507,407,59.5122,167.45,80.95,165.35,85.82,1.35,-0.016,-0.115,0.048,-5860513.088,1390692.122,2092054.141
11.15,19.2732,166.6507,410,59.7713,167.44,80.94,165.34,85.82,1.34,-0.015,-0.115,0.048,-5860515.843,1390692.776,2092055.132
11.2,19.2731,166.6507,413,60.0334,167.43,80.94,165.33,85.81,1.33,-0.015,-0.115,0.048,-5860522.154,1390694.273,2092045.672
11.25,19.2731,166.6507,416,60.2955,167.42,80.93,165.32,85.81,1.33,-0.014,-0.115,0.048,-5860524.909,1390694.927,2092046.662
11.3,19.2731,166.6507,419,60.5607,167.4,80.93,165.32,85.8,1.32,-0.014,-0.116,0.047,-5860527.665,1390695.581,2092047.652
11.35,19.2731,166.6507,422,60.8228,167.39,80.92,165.31,85.8,1.31,-0.014,-0.117,0.046,-5860530.42,1390696.235,2092048.643
11.4,19.2731,166.6507,425,61.088,167.38,80.92,165.3,85.79,1.31,-0.013,-0.118,0.045,-5860533.175,1390696.888,2092049.633
11.45,19.2731,166.6507,428,61.3532,167.37,80.91,165.29,85.78,1.3,-0.012,-0.118,0.044,-5860535.931,1390697.542,2092050.623
11.5,19.2731,166.6507,431,61.6184,167.36,80.91,165.28,85.78,1.3,-0.012,-0.118,0.044,-5860538.686,1390698.196,2092051.613
11.55,19.2731,166.6507,434,61.8835,167.34,80.9,165.28,85.77,1.29,-0.012,-0.117,0.043,-5860541.442,1390698.85,2092052.603
11.6,19.2731,166.6507,437,62.1487,167.33,80.9,165.27,85.77,1.29,-0.011,-0.117,0.043,-5860544.197,1390699.504,2092053.594
11.65,19.2731,166.6507,440,62.4169,167.32,80.9,165.26,85.76,1.28,-0.011,-0.117,0.043,-5860546.952,1390700.158,2092054.584
11.7,19.2731,166.6507,443,62.6852,167.31,80.89,165.26,85.76,1.28,-0.01,-0.117,0.044,-5860549.708,1390700.811,2092055.574
11.75,19.2731,166.6507,446,62.9534,167.3,80.89,165.25,85.75,1.27,-0.009,-0.117,0.044,-5860552.463,1390701.465,2092056.564
11.8,19.2731,166.6507,449,63.2216,167.28,80.88,165.25,85.74,1.27,-0.009,-0.118,0.044,-5860555.218,1390702.119,2092057.555
11.85,19.2731,166.6507,452,63.4898,167.27,80.88,165.24,85.74,1.27,-0.009,-0.118,0.043,-5860557.974,1390702.773,2092058.545
11.9,19.2731,166.6507,455,63.7611,167.26,80.88,165.24,85.73,1.27,-0.009,-0.119,0.043,-5860560.729,1390703.427,2092059.535
11.95,19.2731,166.6507,459,64.0324,167.25,80.87,165.23,85.73,1.26,-0.009,-0.12,0.042,-5860564.403,1390704.299,2092060.855
12,19.2731,166.6507,462,64.3037,167.24,80.87,165.23,85.72,1.26,-0.009,-0.121,0.043,-5860567.158,1390704.952,2092061.845
12.05,19.2731,166.6507,465,64.5749,167.23,80.86,165.22,85.71,1.26,-0.009,-0.121,0.043,-5860569.914,1390705.606,2092062.836
12.1,19.2731,166.6507,468,64.8462,167.22,80.86,165.22,85.71,1.25,-0.008,-0.121,0.044,-5860572.669,1390706.26,2092063.826
12.15,19.2731,166.6508,471,65.1205,167.2,80.86,165.21,85.7,1.25,-0.007,-0.122,0.044,-5860577.851,1390696.685,2092064.816
12.2,19.2731,166.6508,474,65.3918,167.19,80.85,165.21,85.7,1.25,-0.005,-0.123,0.043,-5860580.607,1390697.339,2092065.806
12.25,19.2731,166.6508,478,65.6661,167.18,80.85,165.21,85.69,1.25,-0.004,-0.126,0.041,-5860584.281,1390698.211,2092067.127
12.3,19.2731,166.6508,481,65.9435,167.17,80.85,165.21,85.68,1.25,-0.001,-0.13,0.038,-5860587.036,1390698.865,2092068.117
12.35,19.273,166.6508,484,66.2178,167.16,80.84,165.21,85.68,1.25,0.003,-0.134,0.034,-5860593.347,1390700.362,2092058.657
12.4,19.273,166.6508,488,66.4952,167.15,80.84,165.21,85.67,1.26,0.007,-0.139,0.03,-5860597.02,1390701.234,2092059.977
12.45,19.273,166.6508,491,66.7695,167.13,80.84,165.22,85.66,1.27,0.012,-0.145,0.025,-5860599.776,1390701.888,2092060.968
12.5,19.273,166.6508,494,67.0469,167.12,80.84,165.23,85.66,1.28,0.018,-0.152,0.02,-5860602.531,1390702.542,2092061.958
12.55,19.273,166.6508,497,67.3273,167.11,80.83,165.24,85.65,1.29,0.026,-0.158,0.016,-5860605.286,1390703.196,2092062.948
12.6,19.273,166.6508,501,67.6046,167.1,80.83,165.26,85.64,1.31,0.034,-0.165,0.01,-5860608.96,1390704.067,2092064.268
12.65,19.273,166.6508,504,67.8851,167.09,80.83,165.29,85.63,1.34,0.042,-0.173,0.005,-5860611.716,1390704.721,2092065.258
12.7,19.273,166.6508,507,68.1655,167.08,80.82,165.32,85.62,1.37,0.051,-0.18,-0.001,-5860614.471,1390705.375,2092066.249
12.75,19.273,166.6508,511,68.4459,167.06,80.82,165.35,85.61,1.41,0.061,-0.189,-0.008,-5860618.145,1390706.247,2092067.569
12.8,19.273,166.6508,514,68.7263,167.05,80.82,165.4,85.6,1.45,0.07,-0.197,-0.016,-5860620.9,1390706.901,2092068.559
12.85,19.273,166.6508,518,69.0098,167.04,80.82,165.44,85.59,1.49,0.08,-0.205,-0.023,-5860624.574,1390707.772,2092069.879
12.9,19.273,166.6508,521,69.2902,167.03,80.81,165.5,85.58,1.55,0.09,-0.212,-0.031,-5860627.329,1390708.426,2092070.87
12.95,19.273,166.6508,524,69.5736,167.02,80.81,165.56,85.57,1.6,0.1,-0.221,-0.039,-5860630.085,1390709.08,2092071.86
13,19.273,166.6508,528,69.8571,167.01,80.81,165.62,85.56,1.67,0.11,-0.228,-0.048,-5860633.758,1390709.952,2092073.18
13.05,19.273,166.6508,531,70.1436,167,80.81,165.7,85.55,1.74,0.119,-0.236,-0.057,-5860636.514,1390710.606,2092074.17
13.1,19.273,166.6508,535,70.4271,166.99,80.8,165.77,85.54,1.81,0.128,-0.243,-0.067,-5860640.188,1390711.478,2092075.491
13.15,19.273,166.6508,538,70.7136,166.99,80.8,165.85,85.53,1.89,0.136,-0.248,-0.076,-5860642.943,1390712.131,2092076.481
13.2,19.273,166.6508,542,71.0001,166.98,80.8,165.94,85.51,1.97,0.144,-0.253,-0.084,-5860646.617,1390713.003,2092077.801
13.25,19.273,166.6508,545,71.2866,166.97,80.8,166.03,85.5,2.06,0.15,-0.257,-0.091,-5860649.372,1390713.657,2092078.791
13.3,19.273,166.6508,549,71.5731,166.97,80.79,166.13,85.49,2.15,0.154,-0.262,-0.098,-5860653.046,1390714.529,2092080.112
13.35,19.2729,166.6508,552,71.8597,166.96,80.79,166.22,85.47,2.23,0.157,-0.268,-0.105,-5860659.357,1390716.026,2092070.652
13.4,19.2729,166.6508,556,72.1492,166.96,80.79,166.32,85.46,2.32,0.157,-0.272,-0.111,-5860663.03,1390716.898,2092071.972
13.45,19.2729,166.6508,560,72.4357,166.96,80.78,166.41,85.45,2.41,0.157,-0.277,-0.117,-5860666.704,1390717.77,2092073.292
13.5,19.2729,166.6508,563,72.7253,166.96,80.78,166.5,85.43,2.5,0.155,-0.28,-0.121,-5860669.46,1390718.424,2092074.282
13.55,19.2729,166.6508,567,73.0148,166.96,80.78,166.59,85.42,2.58,0.153,-0.284,-0.126,-5860673.133,1390719.295,2092075.603
13.6,19.2729,166.6508,570,73.3044,166.96,80.77,166.68,85.4,2.67,0.149,-0.287,-0.131,-5860675.889,1390719.949,2092076.593
13.65,19.2729,166.6508,574,73.594,166.96,80.77,166.77,85.39,2.74,0.144,-0.29,-0.136,-5860679.563,1390720.821,2092077.913
13.7,19.2729,166.6508,578,73.8835,166.96,80.77,166.85,85.37,2.82,0.139,-0.292,-0.14,-5860683.236,1390721.693,2092079.233
13.75,19.2729,166.6508,581,74.1761,166.96,80.76,166.93,85.36,2.89,0.134,-0.295,-0.143,-5860685.992,1390722.347,2092080.224
13.8,19.2729,166.6508,585,74.4687,166.97,80.76,167,85.34,2.95,0.127,-0.297,-0.147,-5860689.666,1390723.219,2092081.544
13.85,19.2729,166.6508,589,74.7613,166.97,80.76,167.07,85.33,3.02,0.12,-0.299,-0.15,-5860693.339,1390724.09,2092082.864
13.9,19.2729,166.6508,592,75.054,166.97,80.75,167.13,85.31,3.07,0.113,-0.3,-0.153,-5860696.095,1390724.744,2092083.854
13.95,19.2729,166.6508,596,75.3466,166.98,80.75,167.19,85.3,3.12,0.105,-0.301,-0.155,-5860699.769,1390725.616,2092085.175
14,19.2729,166.6508,600,75.6392,166.98,80.75,167.25,85.28,3.17,0.099,-0.302,-0.158,-5860703.442,1390726.488,2092086.495
14.05,19.2729,166.6508,603,75.9348,166.99,80.74,167.3,85.27,3.21,0.093,-0.303,-0.159,-5860706.198,1390727.142,2092087.485
14.1,19.2729,166.6508,607,76.2274,166.99,80.74,167.34,85.25,3.25,0.087,-0.304,-0.161,-5860709.871,1390728.013,2092088.805
14.15,19.2729,166.6508,611,76.5231,167,80.73,167.38,85.24,3.28,0.08,-0.305,-0.163,-5860713.545,1390728.885,2092090.126
14.2,19.2729,166.6508,615,76.8187,167,80.73,167.42,85.22,3.31,0.074,-0.306,-0.164,-5860717.219,1390729.757,2092091.446
14.25,19.2729,166.6508,619,77.1174,167.01,80.73,167.46,85.21,3.34,0.068,-0.306,-0.166,-5860720.893,1390730.629,2092092.766
14.3,19.2729,166.6508,622,77.4131,167.01,80.72,167.49,85.19,3.36,0.062,-0.306,-0.167,-5860723.648,1390731.283,2092093.756
14.35,19.2728,166.6508,626,77.7088,167.02,80.72,167.51,85.17,3.38,0.058,-0.305,-0.168,-5860730.877,1390732.998,2092084.627
14.4,19.2728,166.6508,630,78.0075,167.02,80.71,167.54,85.16,3.39,0.054,-0.305,-0.169,-5860734.551,1390733.87,2092085.947
14.45,19.2728,166.6508,634,78.3062,167.03,80.71,167.56,85.14,3.41,0.05,-0.305,-0.17,-5860738.225,1390734.742,2092087.267
14.5,19.2728,166.6508,638,78.6049,167.04,80.7,167.58,85.13,3.42,0.047,-0.305,-0.171,-5860741.899,1390735.613,2092088.587
14.55,19.2728,166.6508,642,78.9036,167.04,80.7,167.6,85.11,3.43,0.044,-0.305,-0.171,-5860745.573,1390736.485,2092089.908
14.6,19.2728,166.6508,646,79.2053,167.05,80.7,167.62,85.1,3.44,0.041,-0.304,-0.172,-5860749.246,1390737.357,2092091.228
14.65,19.2728,166.6508,649,79.504,167.05,80.69,167.63,85.08,3.44,0.037,-0.303,-0.172,-5860752.002,1390738.011,2092092.218
14.7,19.2728,166.6508,653,79.8058,167.06,80.69,167.64,85.07,3.45,0.034,-0.304,-0.172,-5860755.676,1390738.882,2092093.538
14.75,19.2728,166.6508,657,80.1075,167.06,80.68,167.65,85.05,3.45,0.03,-0.305,-0.173,-5860759.349,1390739.754,2092094.859
14.8,19.2728,166.6508,661,80.4093,167.07,80.68,167.66,85.04,3.45,0.027,-0.306,-0.173,-5860763.023,1390740.626,2092096.179
14.85,19.2728,166.6508,665,80.711,167.08,80.67,167.67,85.02,3.45,0.024,-0.308,-0.174,-5860766.697,1390741.498,2092097.499
14.9,19.2728,166.6508,669,81.0158,167.08,80.67,167.67,85.01,3.44,0.022,-0.308,-0.174,-5860770.371,1390742.37,2092098.819
14.95,19.2728,166.6508,673,81.3176,167.09,80.66,167.68,84.99,3.44,0.021,-0.309,-0.175,-5860774.045,1390743.241,2092100.14
15,19.2728,166.6508,677,81.6224,167.09,80.66,167.68,84.98,3.43,0.02,-0.309,-0.175,-5860777.719,1390744.113,2092101.46
15.05,19.2728,166.6508,681,81.9272,167.1,80.65,167.68,84.96,3.43,0.018,-0.309,-0.175,-5860781.392,1390744.985,2092102.78
15.1,19.2728,166.6508,685,82.232,167.1,80.65,167.68,84.94,3.42,0.017,-0.311,-0.175,-5860785.066,1390745.857,2092104.1
15.15,19.2728,166.6508,689,82.5368,167.11,80.64,167.69,84.93,3.41,0.015,-0.314,-0.177,-5860788.74,1390746.729,2092105.421
15.2,19.2727,166.6508,693,82.8446,167.11,80.64,167.69,84.91,3.4,0.014,-0.317,-0.181,-5860795.969,1390748.444,2092096.291
15.25,19.2727,166.6508,698,83.1494,167.12,80.63,167.69,84.9,3.39,0.014,-0.32,-0.186,-5860800.561,1390749.534,2092097.941
15.3,19.2727,166.6508,702,83.4573,167.13,80.63,167.68,84.88,3.38,0.013,-0.323,-0.19,-5860804.235,1390750.406,2092099.261
15.35,19.2727,166.6508,706,83.7651,167.13,80.62,167.68,84.86,3.37,0.012,-0.326,-0.193,-5860807.909,1390751.277,2092100.582
15.4,19.2727,166.6508,710,84.073,167.14,80.62,167.68,84.85,3.36,0.012,-0.328,-0.195,-5860811.583,1390752.149,2092101.902
15.45,19.2727,166.6508,714,84.3808,167.14,80.61,167.68,84.83,3.35,0.012,-0.33,-0.196,-5860815.257,1390753.021,2092103.222
15.5,19.2727,166.6508,718,84.6887,167.15,80.61,167.68,84.82,3.33,0.013,-0.332,-0.198,-5860818.93,1390753.893,2092104.542
15.55,19.2727,166.6508,722,84.9996,167.15,80.6,167.68,84.8,3.32,0.013,-0.333,-0.2,-5860822.604,1390754.764,2092105.863
15.6,19.2727,166.6508,727,85.3074,167.16,80.6,167.67,84.78,3.31,0.013,-0.334,-0.202,-5860827.197,1390755.854,2092107.513
15.65,19.2727,166.6509,731,85.6183,167.16,80.59,167.67,84.77,3.3,0.014,-0.334,-0.205,-5860833.298,1390746.497,2092108.833
15.7,19.2727,166.6509,735,85.9292,167.16,80.59,167.67,84.75,3.29,0.014,-0.334,-0.207,-5860836.971,1390747.369,2092110.153
15.75,19.2727,166.6509,739,86.2401,167.17,80.58,167.67,84.73,3.28,0.015,-0.335,-0.209,-5860840.645,1390748.24,2092111.474
15.8,19.2727,166.6509,744,86.551,167.17,80.58,167.67,84.72,3.27,0.016,-0.335,-0.211,-5860845.238,1390749.33,2092113.124
15.85,19.2727,166.6509,748,86.865,167.18,80.57,167.67,84.7,3.26,0.016,-0.335,-0.212,-5860848.911,1390750.202,2092114.444
15.9,19.2727,166.6509,752,87.1759,167.18,80.56,167.67,84.68,3.25,0.018,-0.335,-0.213,-5860852.585,1390751.074,2092115.764
15.95,19.2727,166.6509,757,87.4898,167.19,80.56,167.68,84.67,3.24,0.019,-0.335,-0.213,-5860857.177,1390752.163,2092117.415
16,19.2727,166.6509,761,87.8037,167.19,80.55,167.68,84.65,3.23,0.019,-0.334,-0.213,-5860860.851,1390753.035,2092118.735
16.05,19.2726,166.6509,765,88.1177,167.2,80.55,167.68,84.63,3.22,0.02,-0.335,-0.213,-5860868.08,1390754.751,2092109.605
16.1,19.2726,166.6509,770,88.4316,167.2,80.54,167.68,84.62,3.21,0.02,-0.335,-0.213,-5860872.673,1390755.84,2092111.255
16.15,19.2726,166.6509,774,88.7456,167.21,80.54,167.69,84.6,3.21,0.019,-0.336,-0.213,-5860876.347,1390756.712,2092112.575
16.2,19.2726,166.6509,778,89.0626,167.21,80.53,167.69,84.58,3.2,0.019,-0.336,-0.213,-5860880.02,1390757.584,2092113.896
16.25,19.2726,166.6509,783,89.3765,167.22,80.52,167.69,84.56,3.19,0.019,-0.338,-0.213,-5860884.613,1390758.674,2092115.546
16.3,19.2726,166.6509,787,89.6935,167.22,80.52,167.69,84.55,3.18,0.02,-0.34,-0.212,-5860888.286,1390759.545,2092116.866
16.35,19.2726,166.6509,792,90.0105,167.22,80.51,167.69,84.53,3.17,0.021,-0.341,-0.211,-5860892.879,1390760.635,2092118.517
16.4,19.2726,166.6509,796,90.3275,167.23,80.5,167.7,84.51,3.17,0.022,-0.341,-0.21,-5860896.553,1390761.507,2092119.837
16.45,19.2726,166.6509,800,90.6445,167.23,80.5,167.7,84.5,3.16,0.023,-0.341,-0.209,-5860900.226,1390762.379,2092121.157
16.5,19.2726,166.6509,805,90.9615,167.24,80.49,167.71,84.48,3.15,0.024,-0.341,-0.208,-5860904.819,1390763.468,2092122.807
16.55,19.2726,166.6509,809,91.2815,167.24,80.49,167.71,84.46,3.15,0.025,-0.34,-0.207,-5860908.492,1390764.34,2092124.128
16.6,19.2726,166.6509,814,91.5985,167.25,80.48,167.72,84.45,3.14,0.025,-0.34,-0.207,-5860913.085,1390765.43,2092125.778
16.65,19.2726,166.6509,818,91.9185,167.25,80.47,167.72,84.43,3.14,0.025,-0.34,-0.207,-5860916.759,1390766.302,2092127.098
16.7,19.2726,166.6509,823,92.2386,167.26,80.47,167.73,84.41,3.13,0.026,-0.339,-0.208,-5860921.351,1390767.391,2092128.749
16.75,19.2726,166.6509,828,92.5586,167.26,80.46,167.73,84.39,3.13,0.026,-0.339,-0.208,-5860925.943,1390768.481,2092130.399
16.8,19.2725,166.6509,832,92.8787,167.27,80.45,167.74,84.38,3.12,0.026,-0.338,-0.206,-5860933.172,1390770.197,2092121.269
16.85,19.2725,166.6509,837,93.1987,167.27,80.45,167.75,84.36,3.12,0.025,-0.338,-0.205,-5860937.765,1390771.286,2092122.919
16.9,19.2725,166.6509,841,93.5187,167.28,80.44,167.75,84.34,3.11,0.024,-0.338,-0.203,-5860941.438,1390772.158,2092124.239
16.95,19.2725,166.6509,846,93.8418,167.28,80.43,167.76,84.33,3.11,0.023,-0.338,-0.202,-5860946.031,1390773.248,2092125.889
17,19.2725,166.6509,851,94.1649,167.28,80.43,167.76,84.31,3.1,0.022,-0.336,-0.201,-5860950.623,1390774.338,2092127.54
17.05,19.2725,166.6509,855,94.488,167.29,80.42,167.76,84.29,3.1,0.022,-0.335,-0.201,-5860954.297,1390775.209,2092128.86
17.1,19.2725,166.6509,860,94.8111,167.29,80.41,167.77,84.28,3.09,0.021,-0.334,-0.2,-5860958.889,1390776.299,2092130.51
17.15,19.2725,166.6509,865,95.1342,167.3,80.4,167.77,84.26,3.08,0.019,-0.335,-0.2,-5860963.481,1390777.389,2092132.161
17.2,19.2725,166.6509,869,95.4573,167.3,80.4,167.77,84.24,3.07,0.017,-0.338,-0.199,-5860967.155,1390778.261,2092133.481
17.25,19.2725,166.6509,874,95.7804,167.31,80.39,167.77,84.23,3.07,0.016,-0.341,-0.199,-5860971.747,1390779.35,2092135.131
17.3,19.2725,166.6509,879,96.1065,167.31,80.38,167.77,84.21,3.06,0.015,-0.344,-0.198,-5860976.34,1390780.44,2092136.781
17.35,19.2725,166.6509,883,96.4326,167.32,80.38,167.77,84.19,3.05,0.015,-0.347,-0.197,-5860980.013,1390781.312,2092138.102
17.4,19.2725,166.6509,888,96.7588,167.32,80.37,167.77,84.17,3.04,0.016,-0.348,-0.195,-5860984.606,1390782.402,2092139.752
17.45,19.2725,166.6509,893,97.0849,167.33,80.36,167.78,84.16,3.03,0.017,-0.349,-0.193,-5860989.198,1390783.491,2092141.402
17.5,19.2724,166.6509,898,97.411,167.33,80.36,167.78,84.14,3.02,0.017,-0.349,-0.191,-5860997.346,1390785.425,2092132.602
17.55,19.2724,166.6509,903,97.7372,167.34,80.35,167.78,84.12,3.01,0.017,-0.349,-0.19,-5861001.938,1390786.514,2092134.252
17.6,19.2724,166.6509,907,98.0633,167.34,80.34,167.78,84.11,3,0.017,-0.349,-0.189,-5861005.612,1390787.386,2092135.572
17.65,19.2724,166.6509,912,98.3925,167.35,80.33,167.78,84.09,3,0.017,-0.349,-0.19,-5861010.204,1390788.476,2092137.223
17.7,19.2724,166.6509,917,98.7217,167.35,80.33,167.78,84.07,2.99,0.017,-0.348,-0.19,-5861014.796,1390789.566,2092138.873
17.75,19.2724,166.6509,922,99.0478,167.35,80.32,167.78,84.05,2.98,0.017,-0.349,-0.19,-5861019.389,1390790.655,2092140.523
17.8,19.2724,166.6509,927,99.377,167.36,80.31,167.78,84.04,2.97,0.017,-0.349,-0.189,-5861023.981,1390791.745,2092142.174
17.85,19.2724,166.6509,932,99.7092,167.36,80.3,167.79,84.02,2.96,0.016,-0.348,-0.187,-5861028.573,1390792.835,2092143.824
17.9,19.2724,166.6509,937,100.0384,167.37,80.3,167.79,84,2.95,0.016,-0.347,-0.186,-5861033.165,1390793.925,2092145.474
17.95,19.2724,166.6509,942,100.3676,167.37,80.29,167.79,83.98,2.95,0.016,-0.345,-0.185,-5861037.758,1390795.014,2092147.125
18,19.2724,166.6509,947,100.6998,167.38,80.28,167.79,83.97,2.94,0.015,-0.344,-0.185,-5861042.35,1390796.104,2092148.775
18.05,19.2724,166.6509,952,101.029,167.38,80.27,167.79,83.95,2.93,0.015,-0.344,-0.186,-5861046.942,1390797.194,2092150.425
18.1,19.2724,166.6509,957,101.3612,167.39,80.26,167.79,83.93,2.92,0.013,-0.345,-0.187,-5861051.535,1390798.283,2092152.075
18.15,19.2724,166.6509,962,101.6935,167.39,80.26,167.79,83.91,2.91,0.012,-0.346,-0.186,-5861056.127,1390799.373,2092153.726
18.2,19.2723,166.6509,967,102.0257,167.39,80.25,167.79,83.9,2.9,0.011,-0.348,-0.183,-5861064.275,1390801.307,2092144.925
18.25,19.2723,166.6509,972,102.361,167.4,80.24,167.79,83.88,2.89,0.011,-0.349,-0.18,-5861068.867,1390802.396,2092146.576
18.3,19.2723,166.6509,977,102.6932,167.4,80.23,167.78,83.86,2.88,0.011,-0.349,-0.178,-5861073.459,1390803.486,2092148.226
18.35,19.2723,166.6509,982,103.0285,167.41,80.23,167.78,83.85,2.87,0.011,-0.349,-0.176,-5861078.051,1390804.576,2092149.876
18.4,19.2723,166.6509,987,103.3638,167.41,80.22,167.78,83.83,2.86,0.012,-0.348,-0.176,-5861082.644,1390805.665,2092151.526
18.45,19.2723,166.6509,992,103.696,167.42,80.21,167.78,83.81,2.85,0.012,-0.348,-0.176,-5861087.236,1390806.755,2092153.177
18.5,19.2723,166.6509,997,104.0343,167.42,80.2,167.78,83.79,2.84,0.012,-0.348,-0.176,-5861091.828,1390807.845,2092154.827
18.55,19.2723,166.6509,1002,104.3696,167.42,80.19,167.78,83.78,2.83,0.012,-0.348,-0.176,-5861096.421,1390808.935,2092156.477
18.6,19.2723,166.6509,1007,104.7049,167.43,80.19,167.78,83.76,2.82,0.013,-0.347,-0.174,-5861101.013,1390810.024,2092158.128
18.65,19.2723,166.6509,1011.9999,105.0402,167.43,80.18,167.78,83.74,2.81,0.014,-0.346,-0.173,-5861105.605,1390811.114,2092159.778
18.7,19.2723,166.6509,1018,105.3785,167.43,80.17,167.78,83.72,2.81,0.015,-0.344,-0.171,-5861111.116,1390812.422,2092161.758
18.75,19.2723,166.6509,1023,105.7168,167.44,80.16,167.78,83.71,2.8,0.016,-0.341,-0.17,-5861115.708,1390813.511,2092163.409
18.8,19.2722,166.6509,1028,106.0552,167.44,80.15,167.79,83.69,2.79,0.017,-0.339,-0.168,-5861123.856,1390815.445,2092154.608
18.85,19.2722,166.651,1033,106.3935,167.45,80.14,167.79,83.67,2.78,0.018,-0.337,-0.167,-5861130.876,1390806.305,2092156.258
18.9,19.2722,166.651,1039,106.7318,167.45,80.14,167.79,83.66,2.78,0.018,-0.336,-0.167,-5861136.386,1390807.613,2092158.239
18.95,19.2722,166.651,1044,107.0701,167.45,80.13,167.79,83.64,2.77,0.019,-0.334,-0.166,-5861140.979,1390808.702,2092159.889
19,19.2722,166.651,1049,107.4115,167.46,80.12,167.8,83.62,2.77,0.02,-0.333,-0.166,-5861145.571,1390809.792,2092161.539
19.05,19.2722,166.651,1054,107.7499,167.46,80.11,167.8,83.61,2.76,0.021,-0.332,-0.164,-5861150.163,1390810.882,2092163.189
19.1,19.2722,166.651,1060,108.0912,167.47,80.1,167.8,83.59,2.76,0.021,-0.332,-0.163,-5861155.674,1390812.189,2092165.17
19.15,19.2722,166.651,1065,108.4296,167.47,80.09,167.81,83.57,2.76,0.022,-0.334,-0.162,-5861160.266,1390813.279,2092166.82
19.2,19.2722,166.651,1070,108.7709,167.47,80.08,167.81,83.56,2.75,0.022,-0.337,-0.161,-5861164.858,1390814.369,2092168.47
19.25,19.2722,166.651,1076,109.1123,167.48,80.08,167.82,83.54,2.75,0.022,-0.34,-0.159,-5861170.369,1390815.677,2092170.451
19.3,19.2722,166.651,1081,109.4537,167.48,80.07,167.82,83.52,2.74,0.022,-0.342,-0.157,-5861174.961,1390816.766,2092172.101
19.35,19.2722,166.651,1087,109.7951,167.48,80.06,167.83,83.51,2.74,0.02,-0.344,-0.155,-5861180.472,1390818.074,2092174.081
19.4,19.2722,166.651,1092,110.1395,167.49,80.05,167.83,83.49,2.74,0.019,-0.347,-0.155,-5861185.065,1390819.164,2092175.732
19.45,19.2721,166.651,1097,110.4809,167.49,80.04,167.83,83.47,2.73,0.019,-0.348,-0.155,-5861193.212,1390821.097,2092166.931
19.5,19.2721,166.651,1103,110.8253,167.5,80.03,167.83,83.45,2.73,0.02,-0.349,-0.155,-5861198.723,1390822.405,2092168.911
19.55,19.2721,166.651,1108,111.1667,167.5,80.02,167.84,83.44,2.72,0.02,-0.348,-0.155,-5861203.315,1390823.494,2092170.561
19.6,19.2721,166.651,1114,111.5111,167.5,80.02,167.84,83.42,2.72,0.02,-0.348,-0.155,-5861208.826,1390824.802,2092172.542
19.65,19.2721,166.651,1119,111.8555,167.51,80.01,167.84,83.4,2.71,0.019,-0.347,-0.155,-5861213.418,1390825.892,2092174.192
19.7,19.2721,166.651,1125,112.1969,167.51,80,167.85,83.38,2.71,0.019,-0.347,-0.155,-5861218.929,1390827.2,2092176.172
19.75,19.2721,166.651,1130,112.5413,167.52,79.99,167.85,83.37,2.7,0.018,-0.347,-0.156,-5861223.521,1390828.289,2092177.823
19.8,19.2721,166.651,1136,112.8857,167.52,79.98,167.85,83.35,2.7,0.018,-0.347,-0.157,-5861229.032,1390829.597,2092179.803
19.85,19.2721,166.651,1141,113.2332,167.52,79.97,167.85,83.33,2.69,0.017,-0.347,-0.157,-5861233.624,1390830.687,2092181.453
19.9,19.2721,166.651,1147,113.5776,167.53,79.96,167.86,83.31,2.68,0.016,-0.346,-0.156,-5861239.135,1390831.994,2092183.434
19.95,19.2721,166.651,1153,113.9221,167.53,79.95,167.86,83.3,2.68,0.015,-0.345,-0.156,-5861244.646,1390833.302,2092185.414
20,19.272,166.651,1158,114.2695,167.54,79.94,167.86,83.28,2.67,0.014,-0.344,-0.155,-5861252.794,1390835.235,2092176.613
20.05,19.272,166.651,1164,114.614,167.54,79.93,167.86,83.26,2.66,0.014,-0.343,-0.154,-5861258.304,1390836.543,2092178.593
20.1,19.272,166.651,1170,114.9614,167.54,79.93,167.86,83.25,2.66,0.013,-0.342,-0.166,-5861263.815,1390837.851,2092180.574
20.15,19.272,166.651,1175,115.3089,167.55,79.92,167.86,83.23,2.65,0.012,-0.342,-0.216,-5861268.407,1390838.94,2092182.224
20.2,19.272,166.651,1181,115.6564,167.55,79.91,167.86,83.21,2.64,0.012,-0.341,-0.296,-5861273.918,1390840.248,2092184.204
20.25,19.272,166.651,1187,116.0038,167.56,79.9,167.86,83.19,2.62,0.012,-0.341,-0.382,-5861279.429,1390841.556,2092186.185
20.3,19.272,166.651,1192,116.3513,167.56,79.89,167.86,83.18,2.6,0.012,-0.341,-0.457,-5861284.021,1390842.645,2092187.835
20.35,19.272,166.651,1198,116.6988,167.56,79.88,167.86,83.16,2.57,0.013,-0.341,-0.518,-5861289.532,1390843.953,2092189.815
20.4,19.272,166.651,1204,117.0493,167.57,79.87,167.86,83.14,2.55,0.014,-0.341,-0.565,-5861295.043,1390845.261,2092191.795
20.45,19.272,166.651,1210,117.3968,167.57,79.86,167.86,83.13,2.52,0.016,-0.34,-0.603,-5861300.553,1390846.568,2092193.776
20.5,19.272,166.651,1215,117.7473,167.57,79.85,167.87,83.11,2.49,0.017,-0.34,-0.638,-5861305.146,1390847.658,2092195.426
20.55,19.2719,166.651,1221,118.0978,167.58,79.84,167.87,83.09,2.46,0.017,-0.34,-0.668,-5861314.212,1390849.81,2092186.955
20.6,19.2719,166.651,1227,118.4453,167.58,79.83,167.87,83.08,2.43,0.017,-0.34,-0.695,-5861319.723,1390851.117,2092188.935
20.65,19.2719,166.651,1233,118.7958,167.58,79.82,167.87,83.06,2.4,0.017,-0.341,-0.718,-5861325.234,1390852.425,2092190.916
20.7,19.2719,166.651,1239,119.1463,167.59,79.81,167.88,83.04,2.36,0.017,-0.34,-0.737,-5861330.744,1390853.732,2092192.896
20.75,19.2719,166.651,1245,119.4999,167.59,79.8,167.88,83.02,2.33,0.018,-0.338,-0.751,-5861336.255,1390855.04,2092194.876
20.8,19.2719,166.651,1250,119.8504,167.59,79.79,167.88,83.01,2.29,0.019,-0.337,-0.763,-5861340.847,1390856.13,2092196.527
20.85,19.2719,166.651,1256,120.2009,167.6,79.79,167.89,82.99,2.26,0.019,-0.335,-0.772,-5861346.358,1390857.438,2092198.507
20.9,19.2719,166.651,1262,120.5545,167.6,79.78,167.89,82.97,2.23,0.019,-0.335,-0.777,-5861351.869,1390858.745,2092200.487
20.95,19.2719,166.651,1268,120.905,167.6,79.77,167.9,82.96,2.19,0.02,-0.335,-0.78,-5861357.38,1390860.053,2092202.468
21,19.2719,166.651,1274,121.2586,167.61,79.76,167.9,82.94,2.16,0.02,-0.335,-0.782,-5861362.89,1390861.361,2092204.448
21.05,19.2719,166.651,1280,121.6122,167.61,79.75,167.9,82.92,2.12,0.019,-0.335,-0.781,-5861368.401,1390862.668,2092206.428
21.1,19.2718,166.6511,1286,121.9657,167.62,79.74,167.91,82.91,2.09,0.019,-0.335,-0.777,-5861379.895,1390854.59,2092197.957
21.15,19.2718,166.6511,1292,122.3193,167.62,79.73,167.91,82.89,2.05,0.019,-0.334,-0.771,-5861385.406,1390855.897,2092199.937
21.2,19.2718,166.6511,1298,122.6729,167.62,79.72,167.92,82.87,2.02,0.02,-0.334,-0.764,-5861390.916,1390857.205,2092201.918
21.25,19.2718,166.6511,1304,123.0295,167.63,79.71,167.92,82.86,1.99,0.021,-0.333,-0.755,-5861396.427,1390858.512,2092203.898
21.3,19.2718,166.6511,1310,123.383,167.63,79.7,167.93,82.84,1.95,0.022,-0.332,-0.744,-5861401.938,1390859.82,2092205.878
21.35,19.2718,166.6511,1316,123.7397,167.63,79.69,167.93,82.82,1.92,0.022,-0.331,-0.732,-5861407.449,1390861.128,2092207.859
21.4,19.2718,166.6511,1322,124.0932,167.64,79.68,167.94,82.81,1.89,0.023,-0.331,-0.72,-5861412.959,1390862.435,2092209.839
21.45,19.2718,166.6511,1329,124.4498,167.64,79.67,167.95,82.79,1.86,0.023,-0.332,-0.708,-5861419.389,1390863.961,2092212.149
21.5,19.2718,166.6511,1335,124.8065,167.64,79.66,167.95,82.77,1.83,0.022,-0.334,-0.696,-5861424.899,1390865.269,2092214.13
21.55,19.2718,166.6511,1341,125.1631,167.65,79.65,167.96,82.76,1.81,0.021,-0.336,-0.684,-5861430.41,1390866.576,2092216.11
21.6,19.2717,166.6511,1347,125.5197,167.65,79.64,167.96,82.74,1.78,0.021,-0.337,-0.671,-5861439.476,1390868.728,2092207.639
21.65,19.2717,166.6511,1353,125.8763,167.66,79.63,167.97,82.72,1.75,0.021,-0.339,-0.657,-5861444.987,1390870.035,2092209.619
21.7,19.2717,166.6511,1359,126.2329,167.66,79.62,167.98,82.71,1.72,0.02,-0.339,-0.643,-5861450.498,1390871.343,2092211.599
21.75,19.2717,166.6511,1366,126.5926,167.66,79.61,167.98,82.69,1.7,0.02,-0.34,-0.629,-5861456.927,1390872.869,2092213.91
21.8,19.2717,166.6511,1372,126.9492,167.67,79.6,167.99,82.67,1.67,0.019,-0.341,-0.615,-5861462.438,1390874.176,2092215.89
21.85,19.2717,166.6511,1378,127.3089,167.67,79.59,167.99,82.66,1.64,0.018,-0.341,-0.602,-5861467.949,1390875.484,2092217.87
21.9,19.2717,166.6511,1384,127.6655,167.68,79.58,168,82.64,1.62,0.017,-0.341,-0.588,-5861473.459,1390876.792,2092219.85
21.95,19.2717,166.6511,1391,128.0252,167.68,79.57,168,82.62,1.59,0.016,-0.341,-0.574,-5861479.889,1390878.317,2092222.161
22,19.2717,166.6511,1397,128.3848,167.68,79.56,168,82.61,1.57,0.016,-0.34,-0.56,-5861485.399,1390879.625,2092224.141
22.05,19.2717,166.6511,1403,128.7445,167.69,79.55,168.01,82.59,1.55,0.016,-0.339,-0.547,-5861490.91,1390880.933,2092226.121
22.1,19.2716,166.6511,1410,129.1041,167.69,79.54,168.01,82.57,1.52,0.017,-0.338,-0.532,-5861500.895,1390883.302,2092217.98
22.15,19.2716,166.6511,1416,129.4669,167.7,79.53,168.02,82.55,1.5,0.017,-0.337,-0.517,-5861506.406,1390884.609,2092219.96
22.2,19.2716,166.6511,1422,129.8265,167.7,79.52,168.02,82.54,1.48,0.017,-0.338,-0.503,-5861511.917,1390885.917,2092221.941
22.25,19.2716,166.6511,1429,130.1892,167.7,79.51,168.03,82.52,1.46,0.017,-0.34,-0.489,-5861518.346,1390887.443,2092224.251
22.3,19.2716,166.6511,1435,130.5489,167.71,79.5,168.03,82.5,1.44,0.017,-0.341,-0.476,-5861523.856,1390888.75,2092226.231
22.35,19.2716,166.6511,1442,130.9116,167.71,79.49,168.04,82.49,1.42,0.018,-0.341,-0.463,-5861530.286,1390890.276,2092228.542
22.4,19.2716,166.6511,1448,131.2743,167.71,79.48,168.04,82.47,1.41,0.018,-0.34,-0.45,-5861535.796,1390891.584,2092230.522
22.45,19.2716,166.6511,1454,131.637,167.72,79.47,168.05,82.45,1.39,0.019,-0.338,-0.438,-5861541.307,1390892.891,2092232.502
22.5,19.2716,166.6511,1461,131.9997,167.72,79.46,168.05,82.44,1.37,0.019,-0.337,-0.426,-5861547.736,1390894.417,2092234.813
22.55,19.2716,166.6511,1467,132.3625,167.73,79.45,168.06,82.42,1.36,0.018,-0.337,-0.414,-5861553.247,1390895.725,2092236.793
22.6,19.2715,166.6511,1474,132.7282,167.73,79.44,168.06,82.4,1.34,0.017,-0.337,-0.403,-5861563.232,1390898.094,2092228.651
22.65,19.2715,166.6511,1481,133.0909,167.73,79.43,168.07,82.39,1.33,0.016,-0.337,-0.392,-5861569.661,1390899.619,2092230.962
22.7,19.2715,166.6511,1487,133.4567,167.74,79.42,168.07,82.37,1.31,0.015,-0.337,-0.381,-5861575.172,1390900.927,2092232.942
22.75,19.2715,166.6511,1494,133.8224,167.74,79.41,168.08,82.35,1.3,0.015,-0.337,-0.37,-5861581.601,1390902.453,2092235.252
22.8,19.2715,166.6511,1500,134.1882,167.75,79.4,168.08,82.34,1.28,0.014,-0.338,-0.358,-5861587.112,1390903.76,2092237.233
22.85,19.2715,166.6511,1507,134.554,167.75,79.39,168.09,82.32,1.27,0.014,-0.339,-0.348,-5861593.541,1390905.286,2092239.543
22.9,19.2715,166.6511,1513,134.9197,167.75,79.38,168.09,82.3,1.26,0.013,-0.339,-0.338,-5861599.052,1390906.594,2092241.523
22.95,19.2715,166.6511,1520,135.2855,167.76,79.37,168.09,82.28,1.24,0.012,-0.34,-0.328,-5861605.481,1390908.119,2092243.833
23,19.2715,166.6511,1527,135.6543,167.76,79.36,168.1,82.27,1.23,0.011,-0.34,-0.32,-5861611.91,1390909.645,2092246.144
23.05,19.2714,166.6511,1533,136.0201,167.77,79.35,168.1,82.25,1.22,0.01,-0.34,-0.312,-5861620.977,1390911.796,2092237.672
23.1,19.2714,166.6511,1540,136.3889,167.77,79.34,168.1,82.23,1.2,0.009,-0.341,-0.305,-5861627.406,1390913.322,2092239.983
23.15,19.2714,166.6511,1547,136.7546,167.78,79.32,168.1,82.22,1.19,0.008,-0.343,-0.299,-5861633.835,1390914.847,2092242.293
23.2,19.2714,166.6511,1554,137.1234,167.78,79.31,168.1,82.2,1.18,0.007,-0.345,-0.293,-5861640.265,1390916.373,2092244.603
23.25,19.2714,166.6511,1560,137.4922,167.78,79.3,168.11,82.18,1.16,0.007,-0.346,-0.287,-5861645.775,1390917.681,2092246.583
23.3,19.2714,166.6511,1567,137.861,167.79,79.29,168.11,82.17,1.15,0.007,-0.347,-0.281,-5861652.205,1390919.206,2092248.894
23.35,19.2714,166.6512,1574,138.2299,167.79,79.28,168.11,82.15,1.14,0.007,-0.347,-0.275,-5861661.061,1390910.501,2092251.204
23.4,19.2714,166.6512,1581,138.5987,167.79,79.27,168.11,82.13,1.13,0.007,-0.347,-0.269,-5861667.491,1390912.027,2092253.514
23.45,19.2714,166.6512,1587,138.9675,167.8,79.26,168.11,82.11,1.11,0.008,-0.347,-0.263,-5861673.001,1390913.335,2092255.495
23.5,19.2713,166.6512,1594,139.3363,167.8,79.25,168.11,82.1,1.1,0.008,-0.347,-0.257,-5861682.986,1390915.704,2092247.353
23.55,19.2713,166.6512,1601,139.7051,167.81,79.24,168.12,82.08,1.09,0.008,-0.348,-0.252,-5861689.415,1390917.229,2092249.663
23.6,19.2713,166.6512,1608,140.0769,167.81,79.23,168.12,82.06,1.08,0.009,-0.348,-0.247,-5861695.845,1390918.755,2092251.974
23.65,19.2713,166.6512,1615,140.4457,167.81,79.22,168.12,82.04,1.07,0.009,-0.349,-0.242,-5861702.274,1390920.281,2092254.284
23.7,19.2713,166.6512,1622,140.8145,167.82,79.21,168.12,82.03,1.06,0.01,-0.348,-0.236,-5861708.703,1390921.806,2092256.594
23.75,19.2713,166.6512,1629,141.1864,167.82,79.2,168.13,82.01,1.05,0.011,-0.347,-0.231,-5861715.132,1390923.332,2092258.904
23.8,19.2713,166.6512,1636,141.5552,167.82,79.19,168.13,81.99,1.04,0.011,-0.346,-0.227,-5861721.562,1390924.857,2092261.215
23.85,19.2713,166.6512,1643,141.924,167.83,79.18,168.13,81.97,1.04,0.011,-0.346,-0.222,-5861727.991,1390926.383,2092263.525
23.9,19.2712,166.6512,1650,142.2959,167.83,79.17,168.14,81.96,1.03,0.01,-0.346,-0.217,-5861737.976,1390928.752,2092255.383
23.95,19.2712,166.6512,1657,142.6677,167.84,79.16,168.14,81.94,1.02,0.011,-0.346,-0.212,-5861744.405,1390930.278,2092257.694
24,19.2712,166.6512,1664,143.0365,167.84,79.14,168.14,81.92,1.01,0.011,-0.346,-0.206,-5861750.834,1390931.803,2092260.004
24.05,19.2712,166.6512,1671,143.4084,167.84,79.13,168.14,81.91,1.01,0.012,-0.346,-0.202,-5861757.264,1390933.329,2092262.314
24.1,19.2712,166.6512,1678,143.7803,167.85,79.12,168.15,81.89,1,0.013,-0.345,-0.199,-5861763.693,1390934.855,2092264.624
24.15,19.2712,166.6512,1685,144.1491,167.85,79.11,168.15,81.87,0.99,0.014,-0.344,-0.197,-5861770.122,1390936.38,2092266.935
24.2,19.2712,166.6512,1692,144.5209,167.85,79.1,168.16,81.85,0.99,0.014,-0.342,-0.194,-5861776.551,1390937.906,2092269.245
24.25,19.2712,166.6512,1699,144.8928,167.86,79.09,168.16,81.84,0.98,0.014,-0.342,-0.192,-5861782.98,1390939.431,2092271.555
24.3,19.2712,166.6512,1706,145.2646,167.86,79.08,168.17,81.82,0.98,0.014,-0.341,-0.19,-5861789.41,1390940.957,2092273.866
24.35,19.2711,166.6512,1713,145.6365,167.87,79.07,168.17,81.8,0.97,0.016,-0.341,-0.187,-5861799.395,1390943.326,2092265.724
24.4,19.2711,166.6512,1720,146.0084,167.87,79.06,168.17,81.79,0.97,0.017,-0.339,-0.183,-5861805.824,1390944.852,2092268.034
24.45,19.2711,166.6512,1728,146.3802,167.87,79.05,168.18,81.77,0.96,0.018,-0.338,-0.18,-5861813.172,1390946.595,2092270.674
24.5,19.2711,166.6512,1735,146.7521,167.88,79.04,168.19,81.75,0.96,0.019,-0.337,-0.178,-5861819.601,1390948.121,2092272.985
24.55,19.2711,166.6512,1742,147.127,167.88,79.02,168.19,81.74,0.96,0.018,-0.336,-0.175,-5861826.03,1390949.647,2092275.295
24.6,19.2711,166.6512,1749,147.4988,167.88,79.01,168.2,81.72,0.96,0.018,-0.335,-0.172,-5861832.459,1390951.172,2092277.605
24.65,19.2711,166.6512,1756,147.8707,167.89,79,168.2,81.7,0.95,0.017,-0.334,-0.169,-5861838.889,1390952.698,2092279.915
24.7,19.2711,166.6512,1764,148.2425,167.89,78.99,168.21,81.69,0.95,0.016,-0.332,-0.167,-5861846.236,1390954.441,2092282.556
24.75,19.271,166.6512,1771,148.6174,167.9,78.98,168.21,81.67,0.95,0.016,-0.331,-0.166,-5861856.221,1390956.811,2092274.414
24.8,19.271,166.6512,1778,148.9893,167.9,78.97,168.22,81.65,0.94,0.015,-0.33,-0.163,-5861862.65,1390958.336,2092276.724
24.85,19.271,166.6512,1786,149.3642,167.9,78.96,168.22,81.64,0.94,0.015,-0.33,-0.16,-5861869.998,1390960.08,2092279.364
24.9,19.271,166.6512,1793,149.7391,167.91,78.95,168.23,81.62,0.94,0.014,-0.33,-0.159,-5861876.427,1390961.605,2092281.675
24.95,19.271,166.6512,1800,150.111,167.91,78.94,168.23,81.6,0.93,0.014,-0.33,-0.157,-5861882.857,1390963.131,2092283.985
25,19.271,166.6513,1808,150.4859,167.92,78.93,168.24,81.59,0.93,0.014,-0.33,-0.155,-5861892.632,1390954.644,2092286.625
25.05,19.271,166.6513,1815,150.8608,167.92,78.91,168.24,81.57,0.92,0.015,-0.329,-0.152,-5861899.061,1390956.169,2092288.935
25.1,19.271,166.6513,1823,151.2326,167.92,78.9,168.25,81.55,0.92,0.017,-0.326,-0.147,-5861906.409,1390957.913,2092291.576
25.15,19.2709,166.6513,1830,151.6075,167.93,78.89,168.25,81.54,0.92,0.019,-0.324,-0.143,-5861916.394,1390960.282,2092283.434
25.2,19.2709,166.6513,1837,151.9824,167.93,78.88,168.26,81.52,0.92,0.021,-0.322,-0.139,-5861922.823,1390961.808,2092285.744
25.25,19.2709,166.6513,1845,152.3573,167.94,78.87,168.26,81.51,0.92,0.023,-0.321,-0.136,-5861930.171,1390963.551,2092288.384
25.3,19.2709,166.6513,1852,152.7322,167.94,78.86,168.27,81.49,0.92,0.025,-0.319,-0.133,-5861936.6,1390965.077,2092290.694
25.35,19.2709,166.6513,1860,153.1072,167.94,78.85,168.28,81.47,0.92,0.027,-0.318,-0.131,-5861943.948,1390966.82,2092293.335
25.4,19.2709,166.6513,1867,153.482,167.95,78.84,168.29,81.46,0.92,0.03,-0.317,-0.13,-5861950.377,1390968.346,2092295.645
25.45,19.2709,166.6513,1875,153.857,167.95,78.83,168.3,81.44,0.93,0.032,-0.317,-0.131,-5861957.725,1390970.089,2092298.285
